[
    {
        "_id": {
            "$oid": "644a8a29d494d5c1c2069339"
        },
        "name": "Muslim Town Mor",
        "time": "2:50 PM",
        "is_stop": true,
        "stop_no": 1,
        "latitude": 31.520224,
        "longitude": 74.32548
    },
    {
        "_id": {
            "$oid": "644a8a29d494d5c1c206933a"
        },
        "name": "Muslim Town Mor",
        "time": "6:50 AM",
        "is_stop": true,
        "stop_no": 2,
        "latitude": 31.520224,
        "longitude": 74.32548
    },
    {
        "_id": {
            "$oid": "644a8a29d494d5c1c206933b"
        },
        "name": "Naqsha Stop",
        "time": "6:51 AM",
        "is_stop": true,
        "stop_no": 3,
        "latitude": 31.516496515862194,
        "longitude": 74.31495641365117
    },
    {
        "_id": {
            "$oid": "644a8a29d494d5c1c206933c"
        },
        "name": "",
        "time": "6:52 AM",
        "is_stop": true,
        "stop_no": 4,
        "latitude": 31.514566547816308,
        "longitude": 74.31116610208386
    },
    {
        "_id": {
            "$oid": "644a8a29d494d5c1c206933d"
        },
        "name": "",
        "time": "6:53 AM",
        "is_stop": true,
        "stop_no": 5,
        "latitude": 31.51180641575131,
        "longitude": 74.30546749588095
    },
    {
        "_id": {
            "$oid": "644a8a29d494d5c1c206933e"
        },
        "name": "Bhekewal Morr",
        "time": "6:54 AM",
        "is_stop": true,
        "stop_no": 6,
        "latitude": 31.509720108000938,
        "longitude": 74.30095038651243
    },
    {
        "_id": {
            "$oid": "644a8a29d494d5c1c206933f"
        },
        "name": "Kareem Block Stop",
        "time": "6:58 AM",
        "is_stop": true,
        "stop_no": 7,
        "latitude": 31.50122998890972,
        "longitude": 74.28026748058
    },
    {
        "_id": {
            "$oid": "644a8a29d494d5c1c2069340"
        },
        "name": "Mustafa Town",
        "time": "6:59 AM",
        "is_stop": true,
        "stop_no": 8,
        "latitude": 31.49883465696848,
        "longitude": 74.2737166033416
    },
    {
        "_id": {
            "$oid": "644a8a29d494d5c1c2069341"
        },
        "name": "Awan Town ",
        "time": "7:03 AM",
        "is_stop": true,
        "stop_no": 9,
        "latitude": 31.5033718079466,
        "longitude": 74.26793484752756
    },
    {
        "_id": {
            "$oid": "644a8a29d494d5c1c2069342"
        },
        "name": "Kharak Stop",
        "time": "7:05 AM",
        "is_stop": true,
        "stop_no": 10,
        "latitude": 31.50966603509507,
        "longitude": 74.27212475774462
    },
    {
        "_id": {
            "$oid": "644a8a29d494d5c1c2069343"
        },
        "name": "PSO Petrol Pump",
        "time": "7:07 AM",
        "is_stop": true,
        "stop_no": 11,
        "latitude": 31.51543738600657,
        "longitude": 74.27591024302575
    },
    {
        "_id": {
            "$oid": "644a8a29d494d5c1c2069344"
        },
        "name": "Liaqat Chowk",
        "time": "7:09 AM",
        "is_stop": true,
        "stop_no": 12,
        "latitude": 31.521692515968407,
        "longitude": 74.26946774070564
    },
    {
        "_id": {
            "$oid": "644a8a29d494d5c1c2069345"
        },
        "name": "Main Blvd Sabzazar",
        "time": "7:11 AM",
        "is_stop": true,
        "stop_no": 13,
        "latitude": 31.5285325061472,
        "longitude": 74.26523624077748
    },
    {
        "_id": {
            "$oid": "644a8a29d494d5c1c2069346"
        },
        "name": "Main Blvd Sabzazar",
        "time": "7:02 AM",
        "is_stop": true,
        "stop_no": 14,
        "latitude": 31.53210087649549,
        "longitude": 74.26298476776134
    },
    {
        "_id": {
            "$oid": "644a8a29d494d5c1c2069347"
        },
        "name": "Babu Sahbu Bus Stop",
        "time": "7:14 AM",
        "is_stop": true,
        "stop_no": 15,
        "latitude": 31.53773562286785,
        "longitude": 74.26707144906402
    },
    {
        "_id": {
            "$oid": "644a8a29d494d5c1c2069348"
        },
        "name": "Uet-Ksk",
        "time": "7:49 AM",
        "is_stop": true,
        "stop_no": 16,
        "latitude": 31.692504,
        "longitude": 74.252004
    },
    {
        "_id": {
            "$oid": "644a8a29d494d5c1c206934a"
        },
        "name": "UET KSK",
        "time": "4:09 AM",
        "is_stop": true,
        "stop_no": 1,
        "latitude": 31.692594,
        "longitude": 74.251981
    },
    {
        "_id": {
            "$oid": "644a8a29d494d5c1c206934b"
        },
        "name": "Babu Sabu Bus Stop",
        "time": "4:33 AM",
        "is_stop": true,
        "stop_no": 2,
        "latitude": 31.53820729951029,
        "longitude": 74.26776953104758
    },
    {
        "_id": {
            "$oid": "644a8a29d494d5c1c206934c"
        },
        "name": "Main Blvd Sabzazar",
        "time": "4:37 AM",
        "is_stop": true,
        "stop_no": 3,
        "latitude": 31.532502848268194,
        "longitude": 74.26286778369828
    },
    {
        "_id": {
            "$oid": "644a8a29d494d5c1c206934d"
        },
        "name": "Main Blvd Sabzazar",
        "time": "4:38 AM",
        "is_stop": true,
        "stop_no": 4,
        "latitude": 31.527686008933113,
        "longitude": 74.26591148311479
    },
    {
        "_id": {
            "$oid": "644a8a29d494d5c1c206934e"
        },
        "name": "Liaqat Chowk",
        "time": "4:40 AM",
        "is_stop": true,
        "stop_no": 5,
        "latitude": 31.52116503656235,
        "longitude": 74.27002656429153
    },
    {
        "_id": {
            "$oid": "644a8a29d494d5c1c206934f"
        },
        "name": "PSO Petrol Pump",
        "time": "4:41 AM",
        "is_stop": true,
        "stop_no": 6,
        "latitude": 31.51802532974909,
        "longitude": 74.2720469780678
    },
    {
        "_id": {
            "$oid": "644a8a29d494d5c1c2069350"
        },
        "name": "Kharak Stop",
        "time": "4:44 AM",
        "is_stop": true,
        "stop_no": 7,
        "latitude": 31.50944768482808,
        "longitude": 74.27213453882095
    },
    {
        "_id": {
            "$oid": "644a8a29d494d5c1c2069351"
        },
        "name": "Awan Town",
        "time": "4:47 AM",
        "is_stop": true,
        "stop_no": 8,
        "latitude": 31.50332605239844,
        "longitude": 74.2680566643761
    },
    {
        "_id": {
            "$oid": "644a8a29d494d5c1c2069352"
        },
        "name": "Mandi Stop",
        "time": "4:48 AM",
        "is_stop": true,
        "stop_no": 9,
        "latitude": 31.49889278071492,
        "longitude": 74.26559278335918
    },
    {
        "_id": {
            "$oid": "644a8a29d494d5c1c2069353"
        },
        "name": "Multan Chungi",
        "time": "4:49 AM",
        "is_stop": true,
        "stop_no": 10,
        "latitude": 31.496508519809517,
        "longitude": 74.26451799462458
    },
    {
        "_id": {
            "$oid": "644a8a29d494d5c1c2069354"
        },
        "name": "Mustafa Town",
        "time": "4:51 AM",
        "is_stop": true,
        "stop_no": 11,
        "latitude": 31.4988359089033,
        "longitude": 74.27329026574375
    },
    {
        "_id": {
            "$oid": "644a8a29d494d5c1c2069355"
        },
        "name": "Kareem Block Stop",
        "time": "4:53 AM",
        "is_stop": true,
        "stop_no": 12,
        "latitude": 31.50191030621007,
        "longitude": 74.2815929391997
    },
    {
        "_id": {
            "$oid": "644a8a29d494d5c1c2069356"
        },
        "name": "Bhekewal Morr",
        "time": "4:58 AM",
        "is_stop": true,
        "stop_no": 13,
        "latitude": 31.509921419739563,
        "longitude": 74.30111183807117
    },
    {
        "_id": {
            "$oid": "644a8a29d494d5c1c2069357"
        },
        "name": "13",
        "time": "5:00 AM",
        "is_stop": true,
        "stop_no": 14,
        "latitude": 31.51146503676254,
        "longitude": 74.30409831739792
    },
    {
        "_id": {
            "$oid": "644a8a29d494d5c1c2069358"
        },
        "name": "14",
        "time": "5:01 AM",
        "is_stop": true,
        "stop_no": 15,
        "latitude": 31.51480188117758,
        "longitude": 74.31122595962071
    },
    {
        "_id": {
            "$oid": "644a8a29d494d5c1c2069359"
        },
        "name": "naqsha stop",
        "time": "5:02 AM",
        "is_stop": true,
        "stop_no": 16,
        "latitude": 31.51680178752069,
        "longitude": 74.31532559973107
    },
    {
        "_id": {
            "$oid": "644a8a29d494d5c1c206935a"
        },
        "name": "Muslim Town Mor",
        "time": "5:05 AM",
        "is_stop": true,
        "stop_no": 17,
        "latitude": 31.520162,
        "longitude": 74.326216
    },
    {
        "_id": {
            "$oid": "644a8a29d494d5c1c206935c"
        },
        "name": "UET KSK",
        "time": "4:09 AM",
        "is_stop": true,
        "stop_no": 1,
        "latitude": 31.692594,
        "longitude": 74.251981
    },
    {
        "_id": {
            "$oid": "644a8a29d494d5c1c206935d"
        },
        "name": "Babu Sahbu Bus Stop",
        "time": "4:33 AM",
        "is_stop": true,
        "stop_no": 2,
        "latitude": 31.53820729951029,
        "longitude": 74.26776953104758
    },
    {
        "_id": {
            "$oid": "644a8a29d494d5c1c206935e"
        },
        "name": "Main Blvd Sabzazar",
        "time": "4:37 AM",
        "is_stop": true,
        "stop_no": 3,
        "latitude": 31.532502848268194,
        "longitude": 74.26286778369828
    },
    {
        "_id": {
            "$oid": "644a8a29d494d5c1c206935f"
        },
        "name": "Main Blvd Sabzazar",
        "time": "4:38 AM",
        "is_stop": true,
        "stop_no": 4,
        "latitude": 31.527686008933113,
        "longitude": 74.26591148311479
    },
    {
        "_id": {
            "$oid": "644a8a29d494d5c1c2069360"
        },
        "name": "Liaqat Chowk",
        "time": "4:40 AM",
        "is_stop": true,
        "stop_no": 5,
        "latitude": 31.52116503656235,
        "longitude": 74.27002656429153
    },
    {
        "_id": {
            "$oid": "644a8a29d494d5c1c2069361"
        },
        "name": "PSO Petrol Pump",
        "time": "4:41 AM",
        "is_stop": true,
        "stop_no": 6,
        "latitude": 31.51802532974909,
        "longitude": 74.2720469780678
    },
    {
        "_id": {
            "$oid": "644a8a29d494d5c1c2069362"
        },
        "name": "Kharak Stop",
        "time": "4:44 AM",
        "is_stop": true,
        "stop_no": 7,
        "latitude": 31.50944768482808,
        "longitude": 74.27213453882095
    },
    {
        "_id": {
            "$oid": "644a8a29d494d5c1c2069363"
        },
        "name": "Awan Town",
        "time": "4:47 AM",
        "is_stop": true,
        "stop_no": 8,
        "latitude": 31.50332605239844,
        "longitude": 74.2680566643761
    },
    {
        "_id": {
            "$oid": "644a8a29d494d5c1c2069364"
        },
        "name": "Mandi Stop",
        "time": "4:48 AM",
        "is_stop": true,
        "stop_no": 9,
        "latitude": 31.49889278071492,
        "longitude": 74.26559278335918
    },
    {
        "_id": {
            "$oid": "644a8a29d494d5c1c2069365"
        },
        "name": "Multan Chungi",
        "time": "4:49 AM",
        "is_stop": true,
        "stop_no": 10,
        "latitude": 31.496508519809517,
        "longitude": 74.26451799462458
    },
    {
        "_id": {
            "$oid": "644a8a29d494d5c1c2069366"
        },
        "name": "Mustafa Town",
        "time": "4:51 AM",
        "is_stop": true,
        "stop_no": 11,
        "latitude": 31.4988359089033,
        "longitude": 74.27329026574375
    },
    {
        "_id": {
            "$oid": "644a8a29d494d5c1c2069367"
        },
        "name": "Kareem Block Stop",
        "time": "4:53 AM",
        "is_stop": true,
        "stop_no": 12,
        "latitude": 31.50191030621007,
        "longitude": 74.2815929391997
    },
    {
        "_id": {
            "$oid": "644a8a29d494d5c1c2069368"
        },
        "name": "Bhekewal Morr",
        "time": "4:58 AM",
        "is_stop": true,
        "stop_no": 13,
        "latitude": 31.509921419739563,
        "longitude": 74.30111183807117
    },
    {
        "_id": {
            "$oid": "644a8a29d494d5c1c2069369"
        },
        "name": "13",
        "time": "5:00 AM",
        "is_stop": true,
        "stop_no": 14,
        "latitude": 31.51146503676254,
        "longitude": 74.30409831739792
    },
    {
        "_id": {
            "$oid": "644a8a29d494d5c1c206936a"
        },
        "name": "14",
        "time": "5:01 AM",
        "is_stop": true,
        "stop_no": 15,
        "latitude": 31.51480188117758,
        "longitude": 74.31122595962071
    },
    {
        "_id": {
            "$oid": "644a8a29d494d5c1c206936b"
        },
        "name": "naqsha stop",
        "time": "5:02 AM",
        "is_stop": true,
        "stop_no": 16,
        "latitude": 31.51680178752069,
        "longitude": 74.31532559973107
    },
    {
        "_id": {
            "$oid": "644a8a29d494d5c1c206936c"
        },
        "name": "Muslim Town Mor",
        "time": "5:05 AM",
        "is_stop": true,
        "stop_no": 17,
        "latitude": 31.520162,
        "longitude": 74.326216
    },
    {
        "_id": {
            "$oid": "644a8a29d494d5c1c206936e"
        },
        "name": "UET KSK",
        "time": "4:09 AM",
        "is_stop": true,
        "stop_no": 1,
        "latitude": 31.692594,
        "longitude": 74.251981
    },
    {
        "_id": {
            "$oid": "644a8a29d494d5c1c206936f"
        },
        "name": "Babu Sahbu Bus Stop",
        "time": "4:33 AM",
        "is_stop": true,
        "stop_no": 2,
        "latitude": 31.53820729951029,
        "longitude": 74.26776953104758
    },
    {
        "_id": {
            "$oid": "644a8a29d494d5c1c2069370"
        },
        "name": "Main Blvd Sabzazar",
        "time": "4:37 AM",
        "is_stop": true,
        "stop_no": 3,
        "latitude": 31.532502848268194,
        "longitude": 74.26286778369828
    },
    {
        "_id": {
            "$oid": "644a8a29d494d5c1c2069371"
        },
        "name": "Main Blvd Sabzazar",
        "time": "4:38 AM",
        "is_stop": true,
        "stop_no": 4,
        "latitude": 31.527686008933113,
        "longitude": 74.26591148311479
    },
    {
        "_id": {
            "$oid": "644a8a29d494d5c1c2069372"
        },
        "name": "Liaqat Chowk",
        "time": "4:40 AM",
        "is_stop": true,
        "stop_no": 5,
        "latitude": 31.52116503656235,
        "longitude": 74.27002656429153
    },
    {
        "_id": {
            "$oid": "644a8a29d494d5c1c2069373"
        },
        "name": "PSO Petrol Pump",
        "time": "4:41 AM",
        "is_stop": true,
        "stop_no": 6,
        "latitude": 31.51802532974909,
        "longitude": 74.2720469780678
    },
    {
        "_id": {
            "$oid": "644a8a29d494d5c1c2069374"
        },
        "name": "Kharak Stop",
        "time": "4:44 AM",
        "is_stop": true,
        "stop_no": 7,
        "latitude": 31.50944768482808,
        "longitude": 74.27213453882095
    },
    {
        "_id": {
            "$oid": "644a8a29d494d5c1c2069375"
        },
        "name": "Awan Town",
        "time": "4:47 AM",
        "is_stop": true,
        "stop_no": 8,
        "latitude": 31.50332605239844,
        "longitude": 74.2680566643761
    },
    {
        "_id": {
            "$oid": "644a8a29d494d5c1c2069376"
        },
        "name": "Mandi Stop",
        "time": "4:48 AM",
        "is_stop": true,
        "stop_no": 9,
        "latitude": 31.49889278071492,
        "longitude": 74.26559278335918
    },
    {
        "_id": {
            "$oid": "644a8a29d494d5c1c2069377"
        },
        "name": "Multan Chungi",
        "time": "4:49 AM",
        "is_stop": true,
        "stop_no": 10,
        "latitude": 31.496508519809517,
        "longitude": 74.26451799462458
    },
    {
        "_id": {
            "$oid": "644a8a29d494d5c1c2069378"
        },
        "name": "Mustafa Town",
        "time": "4:51 AM",
        "is_stop": true,
        "stop_no": 11,
        "latitude": 31.4988359089033,
        "longitude": 74.27329026574375
    },
    {
        "_id": {
            "$oid": "644a8a29d494d5c1c2069379"
        },
        "name": "Kareem Block Stop",
        "time": "4:53 AM",
        "is_stop": true,
        "stop_no": 12,
        "latitude": 31.50191030621007,
        "longitude": 74.2815929391997
    },
    {
        "_id": {
            "$oid": "644a8a29d494d5c1c206937a"
        },
        "name": "Bhekewal Morr",
        "time": "4:58 AM",
        "is_stop": true,
        "stop_no": 13,
        "latitude": 31.509921419739563,
        "longitude": 74.30111183807117
    },
    {
        "_id": {
            "$oid": "644a8a29d494d5c1c206937b"
        },
        "name": "13",
        "time": "5:00 AM",
        "is_stop": true,
        "stop_no": 14,
        "latitude": 31.51146503676254,
        "longitude": 74.30409831739792
    },
    {
        "_id": {
            "$oid": "644a8a29d494d5c1c206937c"
        },
        "name": "14",
        "time": "5:01 AM",
        "is_stop": true,
        "stop_no": 15,
        "latitude": 31.51480188117758,
        "longitude": 74.31122595962071
    },
    {
        "_id": {
            "$oid": "644a8a29d494d5c1c206937d"
        },
        "name": "naqsha stop",
        "time": "5:02 AM",
        "is_stop": true,
        "stop_no": 16,
        "latitude": 31.51680178752069,
        "longitude": 74.31532559973107
    },
    {
        "_id": {
            "$oid": "644a8a29d494d5c1c206937e"
        },
        "name": "Muslim Town Mor",
        "time": "5:05 AM",
        "is_stop": true,
        "stop_no": 17,
        "latitude": 31.520162,
        "longitude": 74.326216
    },
    {
        "_id": {
            "$oid": "644a8a29d494d5c1c2069380"
        },
        "name": "UET KSK",
        "time": "4:09 AM",
        "is_stop": true,
        "stop_no": 1,
        "latitude": 31.692594,
        "longitude": 74.251981
    },
    {
        "_id": {
            "$oid": "644a8a29d494d5c1c2069381"
        },
        "name": "Babu Sahbu Bus Stop",
        "time": "4:33 AM",
        "is_stop": true,
        "stop_no": 2,
        "latitude": 31.53820729951029,
        "longitude": 74.26776953104758
    },
    {
        "_id": {
            "$oid": "644a8a29d494d5c1c2069382"
        },
        "name": "Main Blvd Sabzazar",
        "time": "4:37 AM",
        "is_stop": true,
        "stop_no": 3,
        "latitude": 31.532502848268194,
        "longitude": 74.26286778369828
    },
    {
        "_id": {
            "$oid": "644a8a29d494d5c1c2069383"
        },
        "name": "Main Blvd Sabzazar",
        "time": "4:38 AM",
        "is_stop": true,
        "stop_no": 4,
        "latitude": 31.527686008933113,
        "longitude": 74.26591148311479
    },
    {
        "_id": {
            "$oid": "644a8a29d494d5c1c2069384"
        },
        "name": "Liaqat Chowk",
        "time": "4:40 AM",
        "is_stop": true,
        "stop_no": 5,
        "latitude": 31.52116503656235,
        "longitude": 74.27002656429153
    },
    {
        "_id": {
            "$oid": "644a8a29d494d5c1c2069385"
        },
        "name": "PSO Petrol Pump",
        "time": "4:41 AM",
        "is_stop": true,
        "stop_no": 6,
        "latitude": 31.51802532974909,
        "longitude": 74.2720469780678
    },
    {
        "_id": {
            "$oid": "644a8a29d494d5c1c2069386"
        },
        "name": "Kharak Stop",
        "time": "4:44 AM",
        "is_stop": true,
        "stop_no": 7,
        "latitude": 31.50944768482808,
        "longitude": 74.27213453882095
    },
    {
        "_id": {
            "$oid": "644a8a29d494d5c1c2069387"
        },
        "name": "Awan Town",
        "time": "4:47 AM",
        "is_stop": true,
        "stop_no": 8,
        "latitude": 31.50332605239844,
        "longitude": 74.2680566643761
    },
    {
        "_id": {
            "$oid": "644a8a29d494d5c1c2069388"
        },
        "name": "Mandi Stop",
        "time": "4:48 AM",
        "is_stop": true,
        "stop_no": 9,
        "latitude": 31.49889278071492,
        "longitude": 74.26559278335918
    },
    {
        "_id": {
            "$oid": "644a8a29d494d5c1c2069389"
        },
        "name": "Multan Chungi",
        "time": "4:49 AM",
        "is_stop": true,
        "stop_no": 10,
        "latitude": 31.496508519809517,
        "longitude": 74.26451799462458
    },
    {
        "_id": {
            "$oid": "644a8a29d494d5c1c206938a"
        },
        "name": "Mustafa Town",
        "time": "4:51 AM",
        "is_stop": true,
        "stop_no": 11,
        "latitude": 31.4988359089033,
        "longitude": 74.27329026574375
    },
    {
        "_id": {
            "$oid": "644a8a29d494d5c1c206938b"
        },
        "name": "Kareem Block Stop",
        "time": "4:53 AM",
        "is_stop": true,
        "stop_no": 12,
        "latitude": 31.50191030621007,
        "longitude": 74.2815929391997
    },
    {
        "_id": {
            "$oid": "644a8a29d494d5c1c206938c"
        },
        "name": "Bhekewal Morr",
        "time": "4:58 AM",
        "is_stop": true,
        "stop_no": 13,
        "latitude": 31.509921419739563,
        "longitude": 74.30111183807117
    },
    {
        "_id": {
            "$oid": "644a8a29d494d5c1c206938d"
        },
        "name": "13",
        "time": "5:00 AM",
        "is_stop": true,
        "stop_no": 14,
        "latitude": 31.51146503676254,
        "longitude": 74.30409831739792
    },
    {
        "_id": {
            "$oid": "644a8a29d494d5c1c206938e"
        },
        "name": "14",
        "time": "5:01 AM",
        "is_stop": true,
        "stop_no": 15,
        "latitude": 31.51480188117758,
        "longitude": 74.31122595962071
    },
    {
        "_id": {
            "$oid": "644a8a29d494d5c1c206938f"
        },
        "name": "naqsha stop",
        "time": "5:02 AM",
        "is_stop": true,
        "stop_no": 16,
        "latitude": 31.51680178752069,
        "longitude": 74.31532559973107
    },
    {
        "_id": {
            "$oid": "644a8a29d494d5c1c2069390"
        },
        "name": "Muslim Town Mor",
        "time": "5:05 AM",
        "is_stop": true,
        "stop_no": 17,
        "latitude": 31.520162,
        "longitude": 74.326216
    },
    {
        "_id": {
            "$oid": "644a8a29d494d5c1c2069392"
        },
        "name": "UET KSK",
        "time": "4:09 AM",
        "is_stop": true,
        "stop_no": 1,
        "latitude": 31.692594,
        "longitude": 74.251981
    },
    {
        "_id": {
            "$oid": "644a8a29d494d5c1c2069393"
        },
        "name": "Babu Sahbu Bus Stop",
        "time": "4:33 AM",
        "is_stop": true,
        "stop_no": 2,
        "latitude": 31.53820729951029,
        "longitude": 74.26776953104758
    },
    {
        "_id": {
            "$oid": "644a8a29d494d5c1c2069394"
        },
        "name": "Main Blvd Sabzazar",
        "time": "4:37 AM",
        "is_stop": true,
        "stop_no": 3,
        "latitude": 31.532502848268194,
        "longitude": 74.26286778369828
    },
    {
        "_id": {
            "$oid": "644a8a29d494d5c1c2069395"
        },
        "name": "Main Blvd Sabzazar",
        "time": "4:38 AM",
        "is_stop": true,
        "stop_no": 4,
        "latitude": 31.527686008933113,
        "longitude": 74.26591148311479
    },
    {
        "_id": {
            "$oid": "644a8a29d494d5c1c2069396"
        },
        "name": "Liaqat Chowk",
        "time": "4:40 AM",
        "is_stop": true,
        "stop_no": 5,
        "latitude": 31.52116503656235,
        "longitude": 74.27002656429153
    },
    {
        "_id": {
            "$oid": "644a8a29d494d5c1c2069397"
        },
        "name": "PSO Petrol Pump",
        "time": "4:41 AM",
        "is_stop": true,
        "stop_no": 6,
        "latitude": 31.51802532974909,
        "longitude": 74.2720469780678
    },
    {
        "_id": {
            "$oid": "644a8a29d494d5c1c2069398"
        },
        "name": "Kharak Stop",
        "time": "4:44 AM",
        "is_stop": true,
        "stop_no": 7,
        "latitude": 31.50944768482808,
        "longitude": 74.27213453882095
    },
    {
        "_id": {
            "$oid": "644a8a29d494d5c1c2069399"
        },
        "name": "Awan Town",
        "time": "4:47 AM",
        "is_stop": true,
        "stop_no": 8,
        "latitude": 31.50332605239844,
        "longitude": 74.2680566643761
    },
    {
        "_id": {
            "$oid": "644a8a29d494d5c1c206939a"
        },
        "name": "Mandi Stop",
        "time": "4:48 AM",
        "is_stop": true,
        "stop_no": 9,
        "latitude": 31.49889278071492,
        "longitude": 74.26559278335918
    },
    {
        "_id": {
            "$oid": "644a8a29d494d5c1c206939b"
        },
        "name": "Multan Chungi",
        "time": "4:49 AM",
        "is_stop": true,
        "stop_no": 10,
        "latitude": 31.496508519809517,
        "longitude": 74.26451799462458
    },
    {
        "_id": {
            "$oid": "644a8a29d494d5c1c206939c"
        },
        "name": "Mustafa Town",
        "time": "4:51 AM",
        "is_stop": true,
        "stop_no": 11,
        "latitude": 31.4988359089033,
        "longitude": 74.27329026574375
    },
    {
        "_id": {
            "$oid": "644a8a29d494d5c1c206939d"
        },
        "name": "Kareem Block Stop",
        "time": "4:53 AM",
        "is_stop": true,
        "stop_no": 12,
        "latitude": 31.50191030621007,
        "longitude": 74.2815929391997
    },
    {
        "_id": {
            "$oid": "644a8a29d494d5c1c206939e"
        },
        "name": "Bhekewal Morr",
        "time": "4:58 AM",
        "is_stop": true,
        "stop_no": 13,
        "latitude": 31.509921419739563,
        "longitude": 74.30111183807117
    },
    {
        "_id": {
            "$oid": "644a8a29d494d5c1c206939f"
        },
        "name": "13",
        "time": "5:00 AM",
        "is_stop": true,
        "stop_no": 14,
        "latitude": 31.51146503676254,
        "longitude": 74.30409831739792
    },
    {
        "_id": {
            "$oid": "644a8a29d494d5c1c20693a0"
        },
        "name": "14",
        "time": "5:01 AM",
        "is_stop": true,
        "stop_no": 15,
        "latitude": 31.51480188117758,
        "longitude": 74.31122595962071
    },
    {
        "_id": {
            "$oid": "644a8a29d494d5c1c20693a1"
        },
        "name": "naqsha stop",
        "time": "5:02 AM",
        "is_stop": true,
        "stop_no": 16,
        "latitude": 31.51680178752069,
        "longitude": 74.31532559973107
    },
    {
        "_id": {
            "$oid": "644a8a29d494d5c1c20693a2"
        },
        "name": "Muslim Town Mor",
        "time": "5:05 AM",
        "is_stop": true,
        "stop_no": 17,
        "latitude": 31.520162,
        "longitude": 74.326216
    },
    {
        "_id": {
            "$oid": "644a8a29d494d5c1c20693a4"
        },
        "name": "UET KSK",
        "time": "4:09 AM",
        "is_stop": true,
        "stop_no": 1,
        "latitude": 31.692594,
        "longitude": 74.251981
    },
    {
        "_id": {
            "$oid": "644a8a29d494d5c1c20693a5"
        },
        "name": "Babu Sahbu Bus Stop",
        "time": "4:33 AM",
        "is_stop": true,
        "stop_no": 2,
        "latitude": 31.53820729951029,
        "longitude": 74.26776953104758
    },
    {
        "_id": {
            "$oid": "644a8a29d494d5c1c20693a6"
        },
        "name": "Main Blvd Sabzazar",
        "time": "4:37 AM",
        "is_stop": true,
        "stop_no": 3,
        "latitude": 31.532502848268194,
        "longitude": 74.26286778369828
    },
    {
        "_id": {
            "$oid": "644a8a29d494d5c1c20693a7"
        },
        "name": "Main Blvd Sabzazar",
        "time": "4:38 AM",
        "is_stop": true,
        "stop_no": 4,
        "latitude": 31.527686008933113,
        "longitude": 74.26591148311479
    },
    {
        "_id": {
            "$oid": "644a8a29d494d5c1c20693a8"
        },
        "name": "Liaqat Chowk",
        "time": "4:40 AM",
        "is_stop": true,
        "stop_no": 5,
        "latitude": 31.52116503656235,
        "longitude": 74.27002656429153
    },
    {
        "_id": {
            "$oid": "644a8a29d494d5c1c20693a9"
        },
        "name": "PSO Petrol Pump",
        "time": "4:41 AM",
        "is_stop": true,
        "stop_no": 6,
        "latitude": 31.51802532974909,
        "longitude": 74.2720469780678
    },
    {
        "_id": {
            "$oid": "644a8a29d494d5c1c20693aa"
        },
        "name": "Kharak Stop",
        "time": "4:44 AM",
        "is_stop": true,
        "stop_no": 7,
        "latitude": 31.50944768482808,
        "longitude": 74.27213453882095
    },
    {
        "_id": {
            "$oid": "644a8a29d494d5c1c20693ab"
        },
        "name": "Awan Town",
        "time": "4:47 AM",
        "is_stop": true,
        "stop_no": 8,
        "latitude": 31.50332605239844,
        "longitude": 74.2680566643761
    },
    {
        "_id": {
            "$oid": "644a8a29d494d5c1c20693ac"
        },
        "name": "Mandi Stop",
        "time": "4:48 AM",
        "is_stop": true,
        "stop_no": 9,
        "latitude": 31.49889278071492,
        "longitude": 74.26559278335918
    },
    {
        "_id": {
            "$oid": "644a8a29d494d5c1c20693ad"
        },
        "name": "Multan Chungi",
        "time": "4:49 AM",
        "is_stop": true,
        "stop_no": 10,
        "latitude": 31.496508519809517,
        "longitude": 74.26451799462458
    },
    {
        "_id": {
            "$oid": "644a8a29d494d5c1c20693ae"
        },
        "name": "Mustafa Town",
        "time": "4:51 AM",
        "is_stop": true,
        "stop_no": 11,
        "latitude": 31.4988359089033,
        "longitude": 74.27329026574375
    },
    {
        "_id": {
            "$oid": "644a8a29d494d5c1c20693af"
        },
        "name": "Kareem Block Stop",
        "time": "4:53 AM",
        "is_stop": true,
        "stop_no": 12,
        "latitude": 31.50191030621007,
        "longitude": 74.2815929391997
    },
    {
        "_id": {
            "$oid": "644a8a29d494d5c1c20693b0"
        },
        "name": "Bhekewal Morr",
        "time": "4:58 AM",
        "is_stop": true,
        "stop_no": 13,
        "latitude": 31.509921419739563,
        "longitude": 74.30111183807117
    },
    {
        "_id": {
            "$oid": "644a8a29d494d5c1c20693b1"
        },
        "name": "13",
        "time": "5:00 AM",
        "is_stop": true,
        "stop_no": 14,
        "latitude": 31.51146503676254,
        "longitude": 74.30409831739792
    },
    {
        "_id": {
            "$oid": "644a8a29d494d5c1c20693b2"
        },
        "name": "14",
        "time": "5:01 AM",
        "is_stop": true,
        "stop_no": 15,
        "latitude": 31.51480188117758,
        "longitude": 74.31122595962071
    },
    {
        "_id": {
            "$oid": "644a8a29d494d5c1c20693b3"
        },
        "name": "naqsha stop",
        "time": "5:02 AM",
        "is_stop": true,
        "stop_no": 16,
        "latitude": 31.51680178752069,
        "longitude": 74.31532559973107
    },
    {
        "_id": {
            "$oid": "644a8a29d494d5c1c20693b4"
        },
        "name": "Muslim Town Mor",
        "time": "5:05 AM",
        "is_stop": true,
        "stop_no": 17,
        "latitude": 31.520162,
        "longitude": 74.326216
    }
]